,City,Country,Local Date,Latitude,Longitude,Max Daily Temperature (Â°F),Humidity (%),Cloudiness (%),Wind Speed (mph)
0,Te Anau,NZ,2019-3-31 12:25,-45.41,167.72,51.55,86,68,18.03
1,Barrow,AR,2019-3-31 12:22,-38.31,-60.23,83.5,38,12,7.74
2,Albany,US,2019-3-31 12:22,42.65,-73.75,44.01,100,90,6.93
3,Ilulissat,GL,2019-3-31 11:50,69.22,-51.1,17.6,61,75,13.87
4,Lahat,ID,2019-3-31 12:27,-3.78,103.55,71.8,98,88,4.72
5,Bluff,AU,2019-3-31 12:17,-23.58,149.07,54.61,62,0,9.42
6,Hithadhoo,MV,2019-3-31 12:24,-0.6,73.08,83.86,100,12,5.95
7,Los Llanos de Aridane,ES,2019-3-31 12:21,28.66,-17.92,68.0,60,40,4.7
8,Blackwater,GB,2019-3-31 12:30,51.33,-0.78,52.0,57,0,17.22
9,Yaan,NG,2019-3-31 12:30,7.38,8.57,90.16,57,44,2.82
10,Mataura,NZ,2019-3-31 12:20,-46.19,168.86,63.0,74,36,3.0
11,Dikson,RU,2019-3-31 12:25,73.51,80.55,29.5,94,44,22.06
12,Paso de los Toros,UY,2019-3-31 12:30,-32.81,-56.52,80.35,86,20,4.05
13,Mnogovershinnyy,RU,2019-3-31 12:30,53.94,139.92,8.44,78,36,2.26
14,Tiksi,RU,2019-3-31 12:25,71.64,128.87,19.15,76,80,6.29
15,Mar del Plata,AR,2019-3-31 12:22,-46.43,-67.52,75.94,28,0,11.21
16,Rikitea,PF,2019-3-31 12:22,-23.12,-134.97,76.66,100,56,19.48
17,Zyryanka,RU,2019-3-31 12:30,65.73,150.89,-1.64,58,0,2.37
18,Chapais,CA,2019-3-31 11:56,49.78,-74.86,26.6,73,90,12.75
19,Faya,SA,2019-3-31 12:0,18.39,42.45,66.2,39,0,10.29
20,Valparaiso,US,2019-3-31 12:25,41.47,-87.06,37.0,40,90,13.87
21,Hermon,GB,2019-3-31 12:30,51.96,-4.61,54.0,62,56,5.82
22,Leningradskiy,RU,2019-3-31 12:26,69.38,178.42,-2.45,61,0,5.61
23,Beckley,US,2019-3-31 12:25,37.78,-81.19,39.99,74,75,18.34
24,Khatanga,RU,2019-3-31 12:25,71.98,102.47,30.22,89,64,15.68
25,New Norfolk,AU,2019-3-31 12:21,-42.78,147.06,48.2,66,20,8.05
26,Port Alfred,ZA,2019-3-31 12:24,-33.59,26.89,70.27,89,100,3.6
27,Hilo,US,2019-3-31 12:19,19.71,-155.08,73.99,77,40,4.7
28,Chicama,PE,2019-3-31 11:0,-7.84,-79.15,73.4,78,20,10.29
29,Charcas,MX,2019-3-31 12:30,23.13,-101.11,65.5,54,8,10.09
30,Usilampatti,IN,2019-3-31 11:30,9.96,77.79,86.0,48,20,2.82
31,Butaritari,KI,2019-3-31 12:24,3.07,172.79,81.79,100,76,15.23
32,Talakan,RU,2019-3-31 12:30,50.29,130.28,13.39,68,48,4.27
33,Punta Arenas,CL,2019-3-31 12:12,-53.16,-70.91,57.2,58,40,20.8
34,Cabo San Lucas,MX,2019-3-31 12:20,22.89,-109.91,86.0,47,5,8.05
35,Luderitz,NA,2019-3-31 12:25,-26.65,15.16,65.05,75,0,18.25
36,Saulkrasti,LV,2019-3-31 12:30,57.26,24.42,35.6,80,20,9.17
37,Loandjili,CG,2019-3-31 12:0,-4.77,11.87,80.6,83,20,5.82
38,Parambu,BR,2019-3-31 12:30,-6.21,-40.7,81.25,74,92,7.96
39,Busselton,AU,2019-3-31 12:20,-33.64,115.35,70.0,34,88,7.74
40,Vaini,IN,2019-3-31 12:24,15.34,74.49,72.7,83,0,3.38
41,Lata,IN,2019-3-31 12:24,30.78,78.62,45.07,56,0,2.59
42,Tecoanapa,MX,2019-3-31 11:47,16.99,-99.26,84.2,62,5,10.29
43,Guerrero Negro,MX,2019-3-31 12:25,27.97,-114.04,78.37,35,0,4.83
44,Ponta do Sol,BR,2019-3-31 12:23,-20.63,-46.0,82.87,55,0,4.5
45,Murmashi,RU,2019-3-31 12:0,68.82,32.82,28.4,54,0,6.71
46,Lorengau,PG,2019-3-31 12:26,-2.02,147.27,82.33,100,88,10.09
47,Cape Town,ZA,2019-3-31 12:17,-33.93,18.42,66.0,67,40,8.05
48,Hobart,AU,2019-3-31 12:21,-42.88,147.33,48.2,66,20,8.05
49,Jamestown,AU,2019-3-31 12:24,-33.21,138.6,41.2,84,0,2.71
50,Umm Lajj,SA,2019-3-31 12:17,25.02,37.27,64.06,95,20,11.99
51,Serang,ID,2019-3-31 12:30,-6.12,106.15,81.0,83,20,4.7
52,Zhanaozen,KZ,2019-3-31 12:30,43.35,52.85,35.26,79,8,7.85
53,Anadyr,RU,2019-3-31 12:22,64.73,177.51,33.01,94,75,20.13
54,Vanimo,PG,2019-3-31 12:25,-2.67,141.3,83.32,99,44,15.23
55,Kudahuvadhoo,MV,2019-3-31 12:27,2.67,72.89,84.4,100,0,2.93
56,Tongling,CN,2019-3-31 12:30,30.93,117.81,44.62,73,0,5.39
57,Puerto Ayora,EC,2019-3-31 12:17,-0.74,-90.35,84.2,70,20,11.41
58,Strezhevoy,RU,2019-3-31 11:30,60.73,77.6,30.2,92,75,8.95
59,Sungairaya,ID,2019-3-31 12:30,0.7,108.9,75.76,96,0,1.25
60,Charters Towers,AU,2019-3-31 12:30,-20.07,146.27,70.0,94,64,8.97
61,Saskylakh,RU,2019-3-31 12:24,71.97,114.09,18.7,73,0,12.66
62,Gweta,BW,2019-3-31 12:30,-20.21,25.26,84.22,34,68,6.4
63,Nelson Bay,AU,2019-3-31 12:20,-32.72,152.14,57.0,76,64,6.93
64,Bredasdorp,ZA,2019-3-31 12:15,-34.53,20.04,66.2,52,36,16.11
65,Komsomolskiy,RU,2019-3-31 12:23,67.55,63.78,26.89,90,88,19.6
66,Tuktoyaktuk,CA,2019-3-31 11:0,69.44,-133.03,26.6,92,90,17.22
67,Machhlishahr,IN,2019-3-31 11:30,25.69,82.41,84.2,39,12,3.36
68,Namatanai,PG,2019-3-31 12:30,-3.66,152.44,78.82,100,64,8.75
69,Bielsko-Biala,PL,2019-3-31 12:30,49.82,19.05,57.2,50,0,9.17
70,Okahandja,NA,2019-3-31 12:30,-21.98,16.91,66.2,77,80,4.7
71,Hermanus,ZA,2019-3-31 12:16,-34.42,19.24,66.0,69,12,7.0
72,Pontianak,ID,2019-3-31 12:30,-0.02,109.34,79.45,95,24,3.38
73,Isangel,VU,2019-3-31 12:26,-19.55,169.27,78.73,100,68,11.21
74,Longyearbyen,NO,2019-3-31 11:50,78.22,15.63,5.0,71,20,6.93
75,Richards Bay,ZA,2019-3-31 12:28,-28.77,32.06,78.55,67,8,10.42
76,Galle,US,2019-3-31 12:30,29.74,-97.91,53.01,46,1,13.87
77,Avarua,CK,2019-3-31 12:0,-21.21,-159.78,77.0,94,92,9.17
78,Qaanaaq,GL,2019-3-31 12:22,77.48,-69.36,-2.09,80,24,5.84
79,Benguela,AO,2019-3-31 12:30,-12.58,13.4,83.59,94,12,3.27
80,Aklavik,CA,2019-3-31 11:30,68.22,-135.01,37.4,94,90,18.34
81,Grindavik,IS,2019-3-31 12:0,63.84,-22.43,35.6,80,75,19.46
82,Hofn,IS,2019-3-31 11:0,64.25,-15.21,41.0,86,90,12.75
83,Saint-Philippe,CA,2019-3-31 12:23,45.36,-73.48,37.0,90,90,6.93
84,Dzhebariki-Khaya,RU,2019-3-31 12:30,62.22,135.8,1.6,59,0,2.37
85,Ushuaia,AR,2019-3-31 11:0,-54.81,-68.31,51.8,71,75,17.22
86,Port Elizabeth,US,2019-3-31 12:24,39.31,-74.98,53.6,71,90,18.34
87,Chake Chake,TZ,2019-3-31 12:30,-5.25,39.77,85.03,97,56,13.11
88,Khani,GE,2019-3-31 12:0,41.96,42.96,53.6,50,75,38.03
89,Hami,CN,2019-3-31 12:24,42.84,93.51,44.53,60,48,2.04
90,Castro,CL,2019-3-31 11:0,-42.48,-73.76,53.6,100,90,2.24
91,Sabha,LY,2019-3-31 12:26,27.03,14.43,65.95,34,48,2.93
92,San Patricio,PY,2019-3-31 12:24,-26.98,-56.83,89.44,61,68,3.49
93,Provideniya,RU,2019-3-31 12:24,64.42,-173.23,27.97,98,80,8.63
94,Oranjestad,AW,2019-3-31 12:0,12.52,-70.03,86.0,66,40,25.28
95,Nazas,MX,2019-3-31 12:30,25.22,-104.11,69.55,34,0,7.4
96,Narsaq,GL,2019-3-31 11:50,60.91,-46.05,23.0,45,20,10.29
97,Carnarvon,ZA,2019-3-31 12:24,-30.97,22.13,71.26,33,8,15.01
98,Lensk,RU,2019-3-31 12:28,60.71,114.91,13.66,67,0,3.71
99,Cam Ranh,VN,2019-3-31 11:30,11.92,109.15,82.4,83,40,1.12
100,East London,ZA,2019-3-31 12:0,-33.02,27.91,68.0,94,20,2.24
101,Boden,SE,2019-3-31 11:50,65.83,21.69,33.8,59,0,2.24
102,Manicore,BR,2019-3-31 12:27,-5.81,-61.3,89.98,65,36,2.71
103,Saint George,GR,2019-3-31 11:50,39.45,22.34,53.6,53,0,5.82
104,Mount Gambier,AU,2019-3-31 11:0,-37.83,140.78,51.8,93,90,4.7
105,Upernavik,GL,2019-3-31 12:23,72.79,-56.15,10.33,100,56,7.18
106,Sula,PH,2019-3-31 12:30,14.22,122.92,80.53,100,12,13.0
107,Hamilton,CA,2019-3-31 12:26,43.26,-79.87,37.0,80,90,18.34
108,Severo-Kurilsk,RU,2019-3-31 12:22,50.68,156.12,27.07,100,64,4.05
109,Evensk,RU,2019-3-31 12:26,61.92,159.24,27.7,88,64,17.02
110,Dunedin,NZ,2019-3-31 12:26,-45.87,170.5,62.01,79,20,11.99
111,Kaitangata,NZ,2019-3-31 12:23,-46.28,169.85,62.01,70,56,1.99
112,Hambantota,LK,2019-3-31 12:26,6.12,81.12,82.33,100,0,7.63
113,Nur,PL,2019-3-31 12:26,52.67,22.32,44.01,67,0,15.79
114,Tongliao,CN,2019-3-31 12:27,43.61,122.27,18.25,70,0,4.38
115,Rexburg,US,2019-3-31 12:30,43.82,-111.79,50.0,45,1,3.36
116,Tobol,SE,2019-3-31 11:50,59.83,12.54,39.2,38,8,13.87
117,Yumen,CN,2019-3-31 12:27,40.29,97.04,32.47,62,8,1.7
118,Mulanje,MW,2019-3-31 12:31,-16.03,35.5,71.17,74,0,5.06
119,Beringovskiy,RU,2019-3-31 12:26,63.05,179.32,31.39,93,80,11.99
120,Victoria,BN,2019-3-31 11:30,5.28,115.24,82.4,78,75,2.24
121,Meulaboh,ID,2019-3-31 12:27,4.14,96.13,79.72,100,88,2.71
122,Businga,CD,2019-3-31 12:31,3.34,20.89,75.4,88,20,1.7
123,Grand-Lahou,CI,2019-3-31 12:31,5.24,-5.0,86.29,70,12,8.75
124,Rio Grande,BR,2019-3-31 12:0,-32.03,-52.1,84.2,54,40,3.36
125,Colesberg,ZA,2019-3-31 12:31,-30.72,25.1,68.65,28,48,6.4
126,Yellowknife,CA,2019-3-31 12:17,62.45,-114.38,35.01,64,75,14.99
127,Nikolsk,RU,2019-3-31 12:31,59.53,45.45,37.06,96,92,10.09
128,Verkh-Usugli,RU,2019-3-31 12:31,52.7,115.17,4.03,56,0,2.37
129,Constitucion,MX,2019-3-31 12:20,23.99,-104.67,71.6,24,20,4.7
130,Bathsheba,BB,2019-3-31 11:0,13.22,-59.52,84.2,66,40,18.34
131,Atuona,PF,2019-3-31 12:23,-9.8,-139.03,81.52,100,68,13.0
132,Morondava,MG,2019-3-31 12:28,-20.3,44.28,80.53,81,0,7.63
133,Aksarka,RU,2019-3-31 12:31,66.56,67.8,20.59,75,0,12.55
134,Port Hedland,AU,2019-3-31 11:30,-20.31,118.58,78.8,69,0,6.93
135,Tsogni,GA,2019-3-31 12:31,-2.79,10.1,83.95,94,24,8.97
136,Baglung,NP,2019-3-31 12:31,28.27,83.59,43.9,76,8,2.15
137,Tasiilaq,GL,2019-3-31 11:50,65.61,-37.64,24.8,79,56,34.45
138,Alofi,NU,2019-3-31 12:0,-19.06,-169.92,75.2,100,44,2.24
139,Ouadda,CF,2019-3-31 12:26,8.07,22.4,88.0,59,36,2.82
140,Pokhara,NP,2019-3-31 12:31,28.21,83.99,51.64,66,20,3.71
141,Eyl,SO,2019-3-31 12:26,7.98,49.82,78.19,100,64,8.41
142,Nikolskoye,RU,2019-3-31 12:21,59.7,30.79,37.4,86,75,8.95
143,Ribeira Grande,PT,2019-3-31 12:0,38.52,-28.7,57.2,58,75,9.17
144,Takaka,NZ,2019-3-31 12:24,-40.86,172.81,66.99,94,92,5.01
145,Bethel,US,2019-3-31 11:53,60.79,-161.76,33.8,80,1,2.71
146,Sioux Lookout,CA,2019-3-31 11:0,50.1,-91.92,30.2,42,75,9.17
147,Pisco,PE,2019-3-31 11:0,-13.71,-76.2,71.6,30,8,27.51
148,Xinqing,CN,2019-3-31 12:31,48.28,129.53,6.46,68,24,2.26
149,Dongsheng,CN,2019-3-31 12:25,29.72,112.52,47.32,82,0,2.37
150,Izazi,TZ,2019-3-31 12:31,-7.24,35.72,71.17,87,36,2.59
151,Kapaa,US,2019-3-31 12:18,22.08,-159.32,71.01,82,40,6.93
152,Marienburg,DE,2019-3-31 12:30,52.12,9.98,50.0,52,0,9.17
153,Inuvik,CA,2019-3-31 12:16,68.36,-133.71,37.4,96,90,19.46
154,Aksu,KZ,2019-3-31 11:30,52.04,76.93,35.6,93,90,6.71
155,Lavrentiya,RU,2019-3-31 12:22,65.58,-170.99,22.75,91,80,4.5
156,Natal,BR,2019-3-31 11:0,-5.81,-35.21,80.6,88,75,6.93
157,Bin Qirdan,TN,2019-3-31 12:31,33.14,11.22,63.7,43,92,8.97
158,Mahebourg,MU,2019-3-31 12:19,-20.41,57.7,78.8,78,20,4.7
159,Kilindoni,TZ,2019-3-31 12:31,-7.91,39.67,84.67,100,8,12.21
160,Gouyave,GD,2019-3-31 12:0,12.16,-61.73,84.2,70,20,21.92
161,Ust-Ishim,RU,2019-3-31 12:31,57.69,71.17,31.57,85,88,11.1
162,Tromso,NO,2019-3-31 12:27,69.65,18.96,28.99,79,90,11.41
163,Libourne,FR,2019-3-31 12:31,44.91,-0.24,66.2,25,0,5.82
164,Sitka,US,2019-3-31 12:15,37.17,-99.65,44.01,40,0,4.0
165,Chuy,UY,2019-3-31 12:23,-33.69,-53.46,77.2,93,0,8.19
166,Kavieng,PG,2019-3-31 12:23,-2.57,150.8,81.16,100,92,9.19
167,Pangody,RU,2019-3-31 12:31,65.85,74.49,29.86,93,88,15.46
168,Henties Bay,NA,2019-3-31 12:2,-22.12,14.28,66.99,81,20,8.01
169,Ostrovnoy,RU,2019-3-31 12:25,68.05,39.51,24.1,81,12,15.79
170,Kuryk,KZ,2019-3-31 12:31,43.18,51.68,40.57,88,8,6.4
171,Port Hardy,CA,2019-3-31 11:0,50.7,-127.42,41.0,100,90,2.26
172,Norman Wells,CA,2019-3-31 11:24,65.28,-126.83,39.2,60,90,8.05
173,Gospic,HR,2019-3-31 12:0,44.55,15.37,51.8,66,0,3.36
174,Cidreira,BR,2019-3-31 12:19,-30.17,-50.22,81.43,72,56,5.17
175,Bambous Virieux,MU,2019-3-31 12:24,-20.34,57.76,78.8,78,20,4.7
176,Chokurdakh,RU,2019-3-31 12:23,70.62,147.9,10.69,66,44,2.93
177,Mitsamiouli,KM,2019-3-31 12:0,-11.38,43.28,80.6,88,20,4.7
178,Niquero,CU,2019-3-31 12:31,20.04,-77.58,82.87,82,8,9.98
179,Biloxi,US,2019-3-31 12:27,30.4,-88.89,48.99,81,90,12.75
180,Esperance,TT,2019-3-31 12:17,10.24,-61.45,89.6,55,20,14.99
181,Geraldton,CA,2019-3-31 12:0,49.72,-86.95,28.4,36,75,9.17
182,Asyut,EG,2019-3-31 12:0,27.18,31.19,59.0,30,0,14.99
183,Woodward,US,2019-3-31 12:15,36.43,-99.39,46.4,30,1,4.83
184,Belmonte,PT,2019-3-31 12:17,40.36,-7.35,59.0,56,32,4.0
185,Teya,MX,2019-3-31 12:15,21.05,-89.07,89.6,46,75,4.7
186,Durusu,TR,2019-3-31 12:0,37.53,40.83,55.4,76,0,9.17
187,Wanning,AT,2019-3-31 12:23,48.64,13.53,60.8,38,20,1.12
188,Nisia Floresta,BR,2019-3-31 12:0,-6.09,-35.21,78.8,94,90,5.82
189,Calatrava,PH,2019-3-31 12:0,10.6,123.48,77.0,73,40,6.93
190,Kahului,US,2019-3-31 12:21,20.89,-156.47,72.0,73,20,4.72
191,Hirara,JP,2019-3-31 12:27,24.8,125.28,69.01,100,88,20.04
192,Conceicao do Araguaia,BR,2019-3-31 12:30,-8.26,-49.26,83.5,99,12,5.95
193,Pandan,PH,2019-3-31 12:31,11.72,122.09,80.08,99,0,18.25
194,Komyshuvakha,UA,2019-3-31 12:31,48.64,37.46,45.52,74,0,2.82
195,Vardo,US,2019-3-31 12:24,39.62,-77.74,53.6,42,90,23.04
196,Nanortalik,GL,2019-3-31 12:23,60.14,-45.24,27.25,100,44,27.98
197,Naze,NG,2019-3-31 11:0,5.43,7.07,87.8,66,75,5.82
198,Heerlen,NL,2019-3-31 12:31,50.89,5.98,53.01,66,20,16.11
199,Talnakh,RU,2019-3-31 12:24,69.49,88.39,27.97,87,88,16.8
200,Eureka,US,2019-3-31 12:31,40.8,-124.16,59.0,81,40,6.93
201,Hovd,NO,2019-3-31 12:25,63.83,10.7,34.0,90,75,27.51
202,Barberton,US,2019-3-31 12:29,41.01,-81.61,30.0,68,90,16.11
203,Petropavlovsk-Kamchatskiy,RU,2019-3-31 11:0,53.05,158.65,19.4,85,8,6.71
204,Beroroha,MG,2019-3-31 12:31,-21.68,45.17,72.25,53,0,3.71
205,Isabela,PH,2019-3-31 12:31,10.2,122.99,70.27,87,0,3.83
206,Doctor Arroyo,MX,2019-3-31 12:31,23.67,-100.18,63.25,70,100,3.94
207,Pinellas Park,US,2019-3-31 12:28,27.84,-82.7,84.99,54,75,9.17
208,Sur,OM,2019-3-31 12:26,22.57,59.53,79.45,79,0,2.15
209,Neuquen,AR,2019-3-31 12:0,-38.95,-68.06,84.2,35,0,4.7
210,Kruisfontein,ZA,2019-3-31 12:23,-34.0,24.73,60.55,86,56,6.17
211,Sinnamary,GF,2019-3-31 12:25,5.38,-52.96,81.7,90,68,9.75
212,Kikwit,CD,2019-3-31 12:31,-5.04,18.82,79.72,85,0,3.15
213,Port Blair,IN,2019-3-31 12:25,11.67,92.75,84.13,100,0,6.06
214,Arraial do Cabo,BR,2019-3-31 11:0,-22.97,-42.02,82.4,54,20,9.17
215,Namibe,AO,2019-3-31 12:25,-15.19,12.15,79.63,96,36,8.08
216,Blagoyevo,RU,2019-3-31 12:31,63.37,47.92,26.35,71,20,4.94
217,Tautira,PF,2019-3-31 12:22,-17.73,-149.15,84.2,70,20,4.7
218,Porto Novo,BR,2019-3-31 11:0,-23.68,-45.44,82.4,48,40,2.24
219,Jiaozuo,CN,2019-3-31 12:31,35.21,113.25,31.12,52,0,1.7
220,Bayevo,RU,2019-3-31 12:31,53.27,80.77,36.97,92,92,9.19
221,Redlands,US,2019-3-31 12:31,34.06,-117.19,82.4,14,5,2.71
222,Ishigaki,JP,2019-3-31 12:31,24.34,124.16,68.92,100,92,21.83
223,Tilichiki,RU,2019-3-31 12:31,60.47,166.1,31.84,89,88,10.2
224,Tuatapere,NZ,2019-3-31 12:20,-46.13,167.69,63.0,74,24,3.0
225,San Quintin,PH,2019-3-31 12:25,17.54,120.52,71.35,90,64,3.15
226,Havre-Saint-Pierre,CA,2019-3-31 12:0,50.23,-63.6,39.2,100,90,14.99
227,Georgetown,GY,2019-3-31 11:0,6.8,-58.16,89.6,70,75,13.87
228,Teahupoo,PF,2019-3-31 12:22,-17.83,-149.27,84.2,70,20,4.7
229,Payo,ID,2019-3-31 12:31,-3.75,103.64,71.8,98,88,4.72
230,Mareeba,AU,2019-3-31 12:25,-16.99,145.42,78.8,83,90,6.93
231,Caravelas,BR,2019-3-31 12:27,-17.73,-39.27,81.52,100,0,15.46
232,Karratha,AU,2019-3-31 12:23,-20.74,116.85,73.24,71,8,3.04
233,Saldanha,PT,2019-3-31 12:24,41.42,-6.55,62.26,36,92,4.38
234,Margate,AU,2019-3-31 12:31,-43.03,147.26,48.2,66,20,8.05
235,Faxinal,BR,2019-3-31 12:31,-24.0,-51.32,84.85,62,24,3.6
236,Hasaki,JP,2019-3-31 11:37,35.73,140.83,41.0,100,20,3.36
237,Davila,PH,2019-3-31 12:0,18.47,120.58,75.2,83,40,19.48
238,Tougan,BF,2019-3-31 12:31,13.07,-3.07,100.6,23,8,3.04
239,Linxia,CN,2019-3-31 12:27,35.6,103.21,21.31,55,32,2.15
240,General Roca,AR,2019-3-31 12:0,-39.03,-67.58,84.2,35,0,4.7
241,Shimoda,JP,2019-3-31 12:29,34.7,138.93,52.0,100,0,12.44
242,Kodiak,US,2019-3-31 12:22,39.95,-94.76,42.01,18,1,4.7
243,Srednekolymsk,RU,2019-3-31 12:25,67.46,153.71,-2.9,62,0,2.93
244,Loiza,PR,2019-3-31 12:30,18.43,-65.88,84.2,66,40,10.29
245,Thompson,CA,2019-3-31 11:0,55.74,-97.86,26.6,53,75,11.41
246,Touros,BR,2019-3-31 11:0,-5.2,-35.46,78.8,100,90,5.82
247,Aden,YE,2019-3-31 12:31,12.79,45.03,80.53,97,0,21.16
248,Assiniboia,CA,2019-3-31 12:31,49.63,-105.99,34.18,77,32,6.96
249,Golakganj,IN,2019-3-31 12:31,26.1,89.83,65.68,97,56,5.84
250,Port Lincoln,AU,2019-3-31 12:30,-34.72,135.86,56.95,100,36,2.93
251,Vila,IT,2019-3-31 12:27,45.18,8.4,68.0,15,0,2.24
252,Sobolevo,RU,2019-3-31 12:27,54.43,31.9,50.2,61,92,18.03
253,Rindal,NO,2019-3-31 12:31,63.05,9.21,28.15,80,80,5.84
254,Moussoro,TD,2019-3-31 12:31,13.64,16.49,88.45,15,0,11.21
255,Vangaindrano,MG,2019-3-31 12:27,-23.35,47.6,69.82,98,100,2.15
256,Faanui,PF,2019-3-31 12:24,-16.48,-151.75,83.05,100,64,4.5
257,Salalah,OM,2019-3-31 11:50,17.01,54.1,80.6,69,20,5.82
258,Bay Roberts,CA,2019-3-31 12:30,47.58,-53.28,63.0,50,75,20.8
259,San Rafael,AR,2019-3-31 12:27,-34.61,-68.33,78.64,52,0,6.85
260,San Sebastian Huehuetenango,GT,2019-3-31 12:31,15.39,-91.62,79.0,21,8,1.99
261,Ancud,CL,2019-3-31 11:0,-41.87,-73.83,53.6,100,90,2.24
262,Baykit,RU,2019-3-31 12:27,61.68,96.39,32.29,91,88,7.4
263,Nikki,BJ,2019-3-31 12:31,9.94,3.21,96.37,30,88,3.71
264,Raudeberg,NO,2019-3-31 12:25,61.99,5.14,36.0,74,75,12.75
265,Whitehorse,CA,2019-3-31 12:28,60.72,-135.06,39.0,59,40,8.05
266,Codrington,AU,2019-3-31 12:23,-28.95,153.24,59.0,93,0,3.94
267,Irtyshskiy,RU,2019-3-31 12:31,58.33,68.13,32.65,89,88,13.0
268,Pacific Grove,US,2019-3-31 12:31,36.62,-121.92,69.01,55,1,6.93
269,Lima,PE,2019-3-31 12:22,-12.06,-77.04,78.8,61,0,10.29
270,Mandalgovi,MN,2019-3-31 12:31,45.76,106.27,21.4,63,12,7.63
271,Benicarlo,ES,2019-3-31 12:25,40.42,0.43,55.0,93,92,3.0
272,Kurilsk,RU,2019-3-31 12:24,45.23,147.88,22.21,100,24,6.96
273,Mogadishu,SO,2019-3-31 12:23,2.04,45.34,83.77,97,0,15.68
274,Aykhal,RU,2019-3-31 12:31,65.95,111.51,23.74,73,44,8.86
275,Cocachacra,PE,2019-3-31 12:31,-17.09,-71.76,76.48,55,0,3.83
276,Nizhnevartovsk,RU,2019-3-31 12:0,60.93,76.58,30.2,92,40,8.95
277,Pevek,RU,2019-3-31 12:23,69.7,170.27,-6.95,60,0,5.61
278,Zabaykalsk,CN,2019-3-31 12:25,49.64,117.33,8.62,60,0,4.72
279,Cabedelo,BR,2019-3-31 12:0,-6.97,-34.84,80.6,94,75,2.24
280,Arti,RU,2019-3-31 12:31,56.43,58.53,30.67,89,24,10.09
281,Lukh,AF,2019-3-31 12:31,36.76,68.87,46.42,87,0,2.71
282,Bougouni,ML,2019-3-31 12:31,11.42,-7.49,98.35,31,36,4.27
283,Belfast,GB,2019-3-31 12:25,54.6,-5.93,48.2,61,20,6.93
284,Puerto Baquerizo Moreno,EC,2019-3-31 12:0,-0.9,-89.6,87.8,62,20,10.29
285,Bafq,IR,2019-3-31 12:31,31.6,55.4,59.92,64,12,2.15
286,Yulara,AU,2019-3-31 11:0,-25.24,130.99,59.0,33,0,5.82
287,Abha,SA,2019-3-31 12:0,18.22,42.5,66.2,39,0,10.29
288,Maizuru,JP,2019-3-31 12:30,35.47,135.35,44.01,88,92,3.0
289,Kozachi Laheri,UA,2019-3-31 12:0,46.71,32.99,48.2,66,0,6.71
290,Port Hawkesbury,CA,2019-3-31 12:30,45.62,-61.36,59.0,81,75,17.22
291,Hamina,FI,2019-3-31 12:27,60.57,27.2,33.8,55,0,5.82
292,Poum,MK,2019-3-31 12:0,41.28,20.71,55.4,19,0,4.7
293,Rio Branco,BR,2019-3-31 12:0,-9.98,-67.82,89.6,59,40,8.05
294,Phan Thiet,VN,2019-3-31 12:31,10.93,108.1,80.35,94,8,10.65
295,Mbumi,TZ,2019-3-31 12:31,-7.91,39.21,76.93,90,12,4.27
296,Sao Joao da Barra,BR,2019-3-31 11:0,-21.64,-41.05,87.8,43,40,6.93
297,Port-Gentil,GA,2019-3-31 12:0,-0.72,8.78,78.8,88,20,2.24
298,Mahibadhoo,MV,2019-3-31 12:27,3.78,72.97,84.22,100,0,0.92
299,Pinega,RU,2019-3-31 12:31,64.7,43.39,27.43,72,36,5.28
300,Saint Anthony,US,2019-3-31 12:20,43.97,-111.68,48.0,45,1,3.36
301,Novoanninskiy,RU,2019-3-31 12:4,50.53,42.67,48.0,75,0,1.99
302,Ahipara,NZ,2019-3-31 12:23,-35.17,173.16,67.3,99,92,10.09
303,Northam,GB,2019-3-31 12:25,51.04,-4.21,52.0,81,20,11.41
304,Rawson,AR,2019-3-31 12:26,-43.3,-65.11,86.47,29,0,9.75
305,Ewa Beach,US,2019-3-31 12:23,21.32,-158.01,73.99,73,1,3.36
306,Taft,PH,2019-3-31 12:31,11.9,125.42,71.8,100,0,7.63
307,Hastings,NZ,2019-3-31 12:31,-39.64,176.84,65.77,94,80,18.48
308,Along,IN,2019-3-31 12:31,28.17,94.8,57.31,95,92,1.36
309,Kaeo,NZ,2019-3-31 12:8,-35.1,173.78,68.0,96,100,15.68
310,Lebu,ET,2019-3-31 12:25,8.96,38.73,62.53,51,32,4.72
311,Ballina,IE,2019-3-31 12:30,54.11,-9.15,50.0,66,75,5.82
312,Kaniv,UA,2019-3-31 12:31,49.76,31.46,48.4,78,0,5.73
313,Dingle,PH,2019-3-31 12:28,11.0,122.67,75.76,74,0,11.88
314,Torbay,CA,2019-3-31 12:17,47.66,-52.73,63.0,50,75,19.46
315,Huaicheng,CN,2019-3-31 12:31,23.91,112.19,57.4,100,92,3.38
316,Juneau,US,2019-3-31 11:56,58.3,-134.42,44.6,65,20,5.82
317,Ostersund,SE,2019-3-31 12:21,63.18,14.64,32.0,67,20,9.17
318,Harper,US,2019-3-31 12:25,30.3,-99.24,51.01,42,75,6.93
319,Banjar,ID,2019-3-31 12:27,-7.37,108.54,70.27,96,76,2.26
320,Souillac,FR,2019-3-31 12:20,45.6,-0.6,69.8,30,0,11.41
321,Steinbach,CA,2019-3-31 12:31,49.53,-96.69,39.0,51,20,5.82
322,Ponta Delgada,PT,2019-3-31 12:31,37.73,-25.67,59.0,72,40,17.22
323,Lodja,CD,2019-3-31 12:31,-3.52,23.6,81.25,76,36,3.15
324,Gemena,CD,2019-3-31 12:31,3.25,19.78,81.79,76,20,1.48
325,Mayskiy,RU,2019-3-31 12:0,43.63,44.06,44.6,48,8,10.42
326,George,NG,2019-3-31 12:31,6.63,3.35,86.92,70,20,8.63
327,Quimperle,FR,2019-3-31 12:30,47.87,-3.55,62.01,59,0,3.36
328,Berlevag,NO,2019-3-31 11:50,70.86,29.09,30.2,86,75,35.57
329,Mehamn,NO,2019-3-31 11:50,71.03,27.85,30.2,68,40,29.97
330,Clyde River,CA,2019-3-31 12:0,70.47,-68.59,5.0,77,75,4.7
331,Vila Franca do Campo,PT,2019-3-31 12:24,37.72,-25.43,59.0,72,40,17.22
332,Senneterre,CA,2019-3-31 12:0,48.39,-77.24,21.2,53,75,12.75
333,Tucurui,BR,2019-3-31 12:30,-3.77,-49.67,73.69,100,92,2.93
334,Labranzagrande,CO,2019-3-31 12:32,5.56,-72.58,68.92,100,56,1.92
335,Sinnar,IN,2019-3-31 12:32,19.85,74.0,65.86,62,0,3.94
336,Lokosovo,RU,2019-3-31 12:23,61.13,74.84,30.22,90,92,10.76
337,Fort Nelson,CA,2019-3-31 11:0,58.81,-122.69,35.6,69,40,3.36
338,Awjilah,LY,2019-3-31 12:30,29.14,21.3,63.07,37,0,10.42
339,Shelburne,CA,2019-3-31 12:26,44.08,-80.2,37.0,86,90,17.22
340,Kulhudhuffushi,MV,2019-3-31 12:32,6.62,73.07,85.12,100,0,0.36
341,Sola,NO,2019-3-31 12:20,58.89,5.65,39.2,55,40,16.11
342,Sao Filipe,CV,2019-3-31 12:24,14.9,-24.5,72.25,91,0,17.47
343,Westport,IE,2019-3-31 12:22,53.8,-9.52,51.01,66,75,5.82
344,Reitz,ZA,2019-3-31 12:32,-27.8,28.43,64.87,55,80,3.83
345,Hervey Bay,AU,2019-3-31 12:30,-25.3,152.85,64.0,88,0,6.93
346,Merauke,ID,2019-3-31 12:25,-8.49,140.4,75.49,100,76,8.63
347,Marrakesh,MA,2019-3-31 12:0,31.63,-7.99,64.4,55,40,11.41
348,Aracati,BR,2019-3-31 12:29,-4.56,-37.77,81.34,92,76,7.18
349,Hobyo,SO,2019-3-31 12:25,5.35,48.53,80.35,81,56,10.76
350,Laguna,MX,2019-3-31 11:46,27.52,-110.01,78.8,26,5,6.93
351,Nagato,JP,2019-3-31 12:19,34.35,131.14,46.0,75,75,13.87
352,Iqaluit,CA,2019-3-31 12:22,63.75,-68.52,10.4,78,75,12.75
353,Damnoen Saduak,TH,2019-3-31 12:30,13.52,99.95,91.0,66,12,7.85
354,Heyang,CN,2019-3-31 12:32,26.1,107.47,45.25,99,92,3.83
355,Paamiut,GL,2019-3-31 12:25,61.99,-49.67,26.35,100,64,9.75
356,Sorong,ID,2019-3-31 12:32,-0.86,131.25,81.52,100,32,6.17
357,Mecca,SA,2019-3-31 12:23,21.43,39.83,70.81,36,24,10.2
358,Kamaishi,JP,2019-3-31 12:25,39.28,141.86,32.65,88,92,6.4
359,Bilma,NE,2019-3-31 12:23,18.69,12.92,79.45,10,0,7.07
360,Praia,BR,2019-3-31 12:0,-20.25,-43.81,82.4,42,40,3.36
361,Campoverde,IT,2019-3-31 12:32,41.54,12.73,60.01,81,5,3.36
362,Nemuro,JP,2019-3-31 12:24,43.32,145.57,29.14,100,8,5.61
363,Moron,VE,2019-3-31 12:25,10.49,-68.2,76.75,88,68,3.04
364,Bar-le-Duc,FR,2019-3-31 12:32,48.77,5.16,64.4,32,0,8.05
365,Kuvshinovo,RU,2019-3-31 12:32,57.03,34.18,40.75,61,36,17.92
366,Diu,IN,2019-3-31 12:32,20.71,70.98,75.67,35,0,8.52
367,Elbistan,TR,2019-3-31 12:32,38.2,37.19,37.78,87,44,2.48
368,Mount Isa,AU,2019-3-31 11:30,-20.73,139.49,62.6,48,0,5.82
369,Bubaque,GW,2019-3-31 12:26,11.28,-15.83,91.33,70,0,6.62
370,Bauchi,NG,2019-3-31 12:32,10.31,9.85,86.74,24,0,5.95
371,Mayo,CA,2019-3-31 12:0,63.59,-135.9,35.6,51,75,3.6
372,Vestmannaeyjar,IS,2019-3-31 12:0,63.44,-20.27,37.4,93,90,17.22
373,Haines Junction,CA,2019-3-31 12:25,60.75,-137.51,29.41,63,0,2.71
374,Praxedis Guerrero,MX,2019-3-31 12:15,31.37,-106.02,53.01,29,1,17.22
375,Pangnirtung,CA,2019-3-31 11:0,66.15,-65.72,6.8,71,75,4.7
376,Sisimiut,GL,2019-3-31 12:24,66.94,-53.67,17.35,94,64,3.71
377,Burnie,AU,2019-3-31 12:32,-41.05,145.91,45.0,86,0,13.0
378,Opuwo,NA,2019-3-31 12:31,-18.06,13.84,74.95,59,76,3.94
379,Vitim,RU,2019-3-31 12:32,59.44,112.57,10.33,64,8,2.37
380,Metro,ID,2019-3-31 12:32,-5.11,105.31,79.0,89,8,7.74
381,Airai,TL,2019-3-31 12:24,-8.93,125.41,64.69,86,0,1.36
382,Cooma,AU,2019-3-31 12:30,-36.24,149.13,36.52,86,12,2.59
383,Sistranda,NO,2019-3-31 12:24,63.73,8.83,37.0,80,75,18.34
384,Beatrice,US,2019-3-31 12:32,40.27,-96.75,46.99,48,1,6.93
385,Fortuna,ES,2019-3-31 12:25,38.18,-1.13,57.99,93,75,5.82
386,Winchester,GB,2019-3-31 12:29,51.06,-1.31,53.6,61,0,11.41
387,Hualmay,PE,2019-3-31 12:32,-11.1,-77.61,75.85,72,20,6.17
388,Tyukalinsk,RU,2019-3-31 12:32,55.87,72.2,31.57,88,80,14.23
389,Vostok,RU,2019-3-31 12:25,46.45,135.83,21.04,82,80,1.7
390,Pearl Lagoon,NI,2019-3-31 12:0,12.34,-83.67,86.0,66,40,4.7
391,Ixtapa,MX,2019-3-31 12:25,20.71,-105.21,77.0,61,5,8.05
392,Zhicheng,CN,2019-3-31 12:32,35.04,112.59,36.97,58,0,1.92
393,Dudinka,RU,2019-3-31 12:30,69.41,86.18,28.96,91,88,21.94
394,Waitati,NZ,2019-3-31 12:30,-45.75,170.57,63.0,77,20,11.01
395,Vila Velha,BR,2019-3-31 12:21,-3.71,-38.6,84.0,100,8,1.01
396,Phalaborwa,ZA,2019-3-31 12:0,-23.95,31.14,78.8,47,0,3.36
397,Coihaique,CL,2019-3-31 11:0,-45.58,-72.07,64.4,45,0,32.21
398,Longkou,CN,2019-3-31 12:32,37.64,120.47,44.71,77,64,11.99
399,Inhambane,MZ,2019-3-31 12:0,-23.87,35.38,71.6,78,20,8.41
400,Mwanza,TZ,2019-3-31 12:0,-2.52,32.9,75.2,78,20,1.59
401,Sakaiminato,JP,2019-3-31 12:18,35.55,133.23,42.8,100,75,4.7
402,Ciudad Guayana,VE,2019-3-31 12:32,8.32,-62.69,96.73,40,0,6.62
403,Vidim,CZ,2019-3-31 12:32,50.47,14.53,54.0,57,0,6.93
404,Lexington,US,2019-3-31 12:30,38.05,-84.5,43.0,48,75,14.99
405,Ahuimanu,US,2019-3-31 12:30,21.44,-157.84,73.99,77,90,3.27
406,Katsuura,JP,2019-3-31 12:4,33.93,134.5,46.99,65,20,16.11
407,Araceli,PH,2019-3-31 12:32,10.55,119.99,81.97,96,0,23.06
408,Bima,ID,2019-3-31 12:32,-8.45,118.73,74.05,100,80,2.26
409,Auki,NG,2019-3-31 12:25,12.18,6.51,90.25,20,0,6.06
410,Meoqui,MX,2019-3-31 11:40,28.27,-105.48,59.0,33,5,18.34
411,Umm Kaddadah,SD,2019-3-31 12:19,13.6,26.69,76.57,15,0,8.3
412,Madaoua,NE,2019-3-31 12:32,14.07,5.96,95.65,16,12,7.74
413,Bambanglipuro,ID,2019-3-31 12:26,-7.95,110.28,72.43,99,32,2.37
414,Tubuala,PA,2019-3-31 12:31,9.52,-79.03,93.99,55,40,9.17
415,Flin Flon,CA,2019-3-31 12:0,54.77,-101.88,30.2,42,90,11.41
416,Abejorral,CO,2019-3-31 12:0,5.79,-75.43,80.6,56,40,11.41
417,Gavle,SE,2019-3-31 12:32,60.67,17.14,36.0,37,20,11.21
418,Buraydah,SA,2019-3-31 12:0,26.33,43.97,75.2,53,40,5.82
419,Jiuquan,CN,2019-3-31 12:32,39.73,98.49,24.28,67,0,3.15
420,Berdigestyakh,RU,2019-3-31 12:30,62.1,126.7,6.37,70,0,2.26
421,Tabas,IR,2019-3-31 12:0,33.6,56.92,73.4,28,92,2.24
422,Aras,YE,2019-3-31 12:30,14.28,44.38,56.14,37,0,4.5
423,Mackenzie,CA,2019-3-31 12:0,55.34,-123.09,42.8,56,1,6.93
424,Bowen,AU,2019-3-31 12:31,-20.01,148.25,78.01,69,90,9.17
425,Aleksandrov Gay,RU,2019-3-31 12:32,50.14,48.57,39.58,86,64,12.1
426,Esmeraldas,BR,2019-3-31 12:0,-19.76,-44.31,82.4,42,40,3.36
427,Canby,US,2019-3-31 12:30,45.26,-122.69,61.0,62,1,2.15
428,Udachnyy,RU,2019-3-31 12:31,66.42,112.4,25.72,72,48,6.06
429,Batagay-Alyta,RU,2019-3-31 12:25,67.8,130.41,-7.4,28,0,2.37
430,Cherskiy,RU,2019-3-31 12:28,68.75,161.3,-9.74,35,0,2.15
431,Gizo,IL,2019-3-31 12:32,31.8,34.94,59.0,76,40,4.7
432,Nara,JP,2019-3-31 12:30,34.68,135.8,46.4,65,92,19.46
433,Mayumba,GA,2019-3-31 12:26,-3.44,10.65,82.42,92,48,6.4
434,Buala,SB,2019-3-31 12:25,-8.15,159.59,79.36,100,92,4.16
435,Taoudenni,ML,2019-3-31 12:25,22.68,-3.98,76.66,37,0,10.31
436,Lagoa,PT,2019-3-31 12:22,37.14,-8.45,64.99,77,75,4.7
437,Dubbo,AU,2019-3-31 12:32,-32.25,148.6,41.02,86,0,2.93
438,Lyubech,UA,2019-3-31 12:32,51.7,30.66,53.8,61,24,9.98
439,Sandy Bay,AU,2019-3-31 12:31,-42.9,147.33,48.2,66,20,8.05
440,Duncan,US,2019-3-31 12:30,34.5,-97.96,50.0,31,1,10.29
441,Itoman,JP,2019-3-31 12:22,26.12,127.67,62.6,59,75,10.29
442,Kushima,JP,2019-3-31 12:32,31.5,131.29,42.01,60,20,8.01
443,Kankon,IN,2019-3-31 12:31,15.02,74.02,82.33,100,0,5.61
444,Kerchevskiy,RU,2019-3-31 12:32,59.95,56.29,29.5,77,68,8.52
445,Predivinsk,RU,2019-3-31 12:32,57.07,93.44,32.83,87,20,6.51
446,Strzelce Krajenskie,PL,2019-3-31 12:32,52.88,15.53,40.75,58,0,10.2
447,Ossora,RU,2019-3-31 12:32,59.24,163.07,29.23,93,88,11.54
448,Melilla,EC,2019-3-31 12:0,-0.8,-80.23,80.6,83,75,4.7
449,Medak,IN,2019-3-31 12:17,18.05,78.27,87.01,27,0,5.99
450,Zarichne,UA,2019-3-31 12:32,51.81,26.13,55.15,55,8,12.66
451,Lasa,CY,2019-3-31 12:15,34.92,32.53,55.4,87,75,2.24
452,Guanambi,BR,2019-3-31 12:32,-14.22,-42.78,82.87,64,0,7.18
453,Sencha,UA,2019-3-31 12:32,50.26,33.34,48.49,81,0,7.85
454,Enumclaw,US,2019-3-31 12:32,47.2,-121.99,61.0,58,1,5.82
455,Portland,US,2019-3-31 12:24,45.52,-122.67,61.0,58,75,6.93
456,Weiden,DE,2019-3-31 12:32,49.81,7.3,60.8,76,0,5.82
457,Alyangula,AU,2019-3-31 11:0,-13.85,136.42,78.8,88,75,18.03
458,Glenwood Springs,US,2019-3-31 12:27,39.55,-107.33,46.99,53,1,1.7
459,Sheffield Lake,US,2019-3-31 12:27,41.49,-82.1,30.99,68,90,13.87
460,Ninghai,CN,2019-3-31 12:31,29.29,121.42,52.0,87,0,2.24
461,Payson,US,2019-3-31 12:30,40.04,-111.73,50.0,52,1,5.82
462,Key West,US,2019-3-31 12:28,47.93,-96.78,33.8,99,75,9.17
463,Manavalakurichi,IN,2019-3-31 12:0,8.13,77.3,87.8,70,40,4.7
464,Gualaquiza,EC,2019-3-31 12:32,-3.4,-78.58,70.27,78,80,2.15
465,Kiruna,SE,2019-3-31 11:50,67.86,20.23,24.8,68,0,14.99
466,El Retorno,CO,2019-3-31 12:32,2.33,-72.63,83.86,78,44,3.27
467,Waingapu,ID,2019-3-31 12:32,-9.65,120.26,72.25,100,32,2.37
468,Caceres,CO,2019-3-31 12:32,5.53,-74.53,83.23,60,32,2.37
469,Manjacaze,MZ,2019-3-31 12:32,-24.71,33.88,76.3,55,0,9.98
470,Petersburg,US,2019-3-31 12:30,37.23,-77.4,66.99,58,90,4.7
471,Praia da Vitoria,PT,2019-3-31 12:15,38.73,-27.07,60.01,72,40,27.54
472,Pitimbu,BR,2019-3-31 12:0,-7.47,-34.81,80.6,94,75,2.24
473,Rome,IT,2019-3-31 12:22,41.89,12.48,61.0,51,0,3.36
474,East Stroudsburg,US,2019-3-31 12:32,41.0,-75.18,52.0,98,90,8.05
475,Price,US,2019-3-31 12:31,39.6,-110.81,48.0,31,1,10.29
476,Borovichi,RU,2019-3-31 12:32,58.39,33.91,38.77,77,92,14.34
477,Jiangyou,CN,2019-3-31 12:32,31.78,104.73,48.31,87,68,2.15
478,Onega,RU,2019-3-31 12:32,63.91,38.09,19.33,71,12,4.5
479,Tacuarembo,UY,2019-3-31 12:31,-31.73,-55.98,81.43,85,48,4.38
480,Naryan-Mar,RU,2019-3-31 12:32,67.67,53.09,25.72,80,56,16.46
481,Kem,UG,2019-3-31 12:29,2.68,33.77,70.9,71,48,4.38
482,Lundazi,ZM,2019-3-31 12:32,-12.29,33.17,69.46,78,36,5.28
483,Dayong,PH,2019-3-31 12:32,11.74,122.04,80.08,99,0,18.25
484,North Bend,US,2019-3-31 12:25,43.41,-124.22,52.0,100,90,3.36
485,North Adams,US,2019-3-31 12:31,42.7,-73.11,46.99,93,90,10.29
486,Alekseyevsk,RU,2019-3-31 12:32,57.84,108.35,17.17,75,44,3.49
487,Sept-Iles,CA,2019-3-31 12:23,50.2,-66.38,36.0,100,90,16.11
488,College,US,2019-3-31 12:25,64.86,-147.8,37.99,92,1,4.72
489,Chuari Khas,IN,2019-3-31 12:32,32.43,76.02,45.25,58,0,2.37
490,Camacha,PT,2019-3-31 12:0,33.08,-16.33,64.4,63,20,12.75
491,Rio Bueno,JM,2019-3-31 12:0,18.47,-77.46,84.2,74,20,16.11
492,Homer,US,2019-3-31 12:23,59.64,-151.54,45.0,65,1,3.36
493,Axim,GH,2019-3-31 12:27,4.87,-2.24,83.77,97,0,10.87
494,Saint-Pierre,FR,2019-3-31 12:25,48.95,4.24,66.99,28,0,8.05
495,Abu Samrah,SY,2019-3-31 12:24,35.3,37.18,50.92,97,92,3.15
496,Muros,ES,2019-3-31 12:21,42.77,-9.06,68.0,58,40,8.05
497,Mangai,CD,2019-3-31 12:25,-4.07,19.59,80.8,85,0,2.82
498,Tiznit,MA,2019-3-31 12:27,29.7,-9.73,60.37,92,64,5.61
499,Ganganagar,IN,2019-3-31 12:32,16.78,77.13,68.74,87,8,3.49
500,Kouango,CF,2019-3-31 12:32,4.99,19.98,83.32,72,8,2.93
501,Basco,US,2019-3-31 12:31,40.33,-91.2,39.99,44,1,6.93
502,Upington,ZA,2019-3-31 12:0,-28.46,21.24,84.2,26,0,2.24
503,Uruzgan,AF,2019-3-31 12:32,32.93,66.63,30.49,68,8,1.7
504,Ritchie,ZA,2019-3-31 12:0,-29.03,24.6,77.0,44,0,9.17
505,Bijar,IR,2019-3-31 12:32,35.87,47.6,38.95,96,100,3.6
506,Ribas do Rio Pardo,BR,2019-3-31 12:25,-20.45,-53.76,89.8,48,12,4.94
507,Nueva Italia,PY,2019-3-31 12:0,-25.61,-57.47,80.6,74,0,3.36
508,Saint-Joseph,FR,2019-3-31 12:21,43.56,6.97,57.2,54,0,3.36
509,Chara,GR,2019-3-31 11:50,39.42,22.43,53.6,53,0,5.82
510,Obo,CF,2019-3-31 12:32,5.39,26.49,79.09,66,0,5.17
511,Watertown,US,2019-3-31 12:26,44.9,-97.12,44.01,52,90,19.46
512,Kenai,US,2019-3-31 12:32,60.55,-151.26,39.99,80,1,5.82
513,Alice Springs,AU,2019-3-31 11:30,-23.7,133.88,53.6,37,0,7.52
514,Santa Rosa,AR,2019-3-31 12:32,-36.62,-64.29,82.15,58,76,13.44
515,Flinders,AU,2019-3-31 12:20,-34.58,150.85,57.99,73,32,2.93
516,Dharapuram,IN,2019-3-31 12:0,10.74,77.53,80.6,78,0,6.93
517,Kathmandu,NP,2019-3-31 11:50,27.71,85.32,57.2,71,20,3.36
518,Bannur,IN,2019-3-31 12:32,12.33,76.86,81.43,36,36,4.61
519,Nioro,GM,2019-3-31 12:28,13.79,-15.05,92.86,34,88,6.29
520,Neka,IR,2019-3-31 12:0,36.65,53.3,51.8,93,90,4.7
521,Rundu,NA,2019-3-31 12:32,-17.91,19.77,81.07,30,20,5.5
522,Labuhan,ID,2019-3-31 12:27,-2.54,115.51,72.7,95,20,0.92
523,Qazvin,IR,2019-3-31 11:0,36.28,50.01,46.4,100,90,2.24
524,Zhezkazgan,KZ,2019-3-31 12:32,47.8,67.71,47.5,85,76,12.66
525,Batemans Bay,AU,2019-3-31 12:18,-35.71,150.18,57.0,84,0,1.01
526,Qaqortoq,GL,2019-3-31 11:50,60.72,-46.03,23.0,45,20,10.29
527,Gubkinskiy,RU,2019-3-31 12:32,64.43,76.5,31.57,89,80,12.21
528,Marawi,PH,2019-3-31 12:15,8.0,124.29,69.01,84,0,7.0
529,Hurricane,US,2019-3-31 12:20,37.18,-113.29,61.0,33,1,8.05
530,Kavaratti,IN,2019-3-31 12:23,10.57,72.64,83.95,100,0,9.98
531,Balkanabat,TM,2019-3-31 12:24,39.51,54.36,41.29,85,76,6.17
532,Le Mars,US,2019-3-31 12:31,42.79,-96.17,45.0,44,90,14.99
